{
"type": "FeatureCollection",
"name": "Recreational hubs",
"crs": { "type": "name", "properties": { "name": "urn:ogc:def:crs:OGC:1.3:CRS84" } },
"features": [
{ "type": "Feature", "properties": { "NAME": "Athlone Community Centre" }, "geometry": { "type": "Point", "coordinates": [ 18.51003, -33.96067 ] } },
{ "type": "Feature", "properties": { "NAME": "Lotus River Community Centre" }, "geometry": { "type": "Point", "coordinates": [ 18.52042, -34.04097 ] } },
{ "type": "Feature", "properties": { "NAME": "Kleinvlei Hall" }, "geometry": { "type": "Point", "coordinates": [ 18.7172, -33.98694 ] } },
{ "type": "Feature", "properties": { "NAME": "Duinefontein Community Centre" }, "geometry": { "type": "Point", "coordinates": [ 18.55194, -33.97535 ] } },
{ "type": "Feature", "properties": { "NAME": "The Hague Community Centre" }, "geometry": { "type": "Point", "coordinates": [ 18.64575, -33.9645 ] } },
{ "type": "Feature", "properties": { "NAME": "Lansport Community Centre" }, "geometry": { "type": "Point", "coordinates": [ 18.53512, -33.99353 ] } },
{ "type": "Feature", "properties": { "NAME": "Cathkin Community Centre" }, "geometry": { "type": "Point", "coordinates": [ 18.5536, -33.96442 ] } },
{ "type": "Feature", "properties": { "NAME": "Nomzamo Sport and Recreation Centre" }, "geometry": { "type": "Point", "coordinates": [ 18.85932, -34.11553 ] } },
{ "type": "Feature", "properties": { "NAME": "Leonsdale Community Centre" }, "geometry": { "type": "Point", "coordinates": [ 18.57471, -33.91964 ] } },
{ "type": "Feature", "properties": { "NAME": "Proteaville Recreation Centre" }, "geometry": { "type": "Point", "coordinates": [ 18.65144, -33.91968 ] } },
{ "type": "Feature", "properties": { "NAME": "Delft South Hall" }, "geometry": { "type": "Point", "coordinates": [ 18.6396, -33.98613 ] } },
{ "type": "Feature", "properties": { "NAME": "Eastridge Community Centre" }, "geometry": { "type": "Point", "coordinates": [ 18.63333, -34.04677 ] } },
{ "type": "Feature", "properties": { "NAME": "Parkwood Community Centre" }, "geometry": { "type": "Point", "coordinates": [ 18.49327, -34.03307 ] } },
{ "type": "Feature", "properties": { "NAME": "Ruth First Community Centre" }, "geometry": { "type": "Point", "coordinates": [ 18.61361, -34.01124 ] } },
{ "type": "Feature", "properties": { "NAME": "Sarepta Sport & Recreation Centre" }, "geometry": { "type": "Point", "coordinates": [ 18.67209, -33.93183 ] } },
{ "type": "Feature", "properties": { "NAME": "Scottsdene Sport & Recreation Centre" }, "geometry": { "type": "Point", "coordinates": [ 18.7193, -33.86545 ] } },
{ "type": "Feature", "properties": { "NAME": "Wesbank Multi-Purpose Centre" }, "geometry": { "type": "Point", "coordinates": [ 18.65895, -33.96936 ] } },
{ "type": "Feature", "properties": { "NAME": "Saxonsea Hall" }, "geometry": { "type": "Point", "coordinates": [ 18.48737, -33.54987 ] } },
{ "type": "Feature", "properties": { "NAME": "Masiphumelele Hall" }, "geometry": { "type": "Point", "coordinates": [ 18.37825, -34.12859 ] } },
{ "type": "Feature", "properties": { "NAME": "Maitland Garden Village Community Centre" }, "geometry": { "type": "Point", "coordinates": [ 18.48759, -33.93303 ] } },
{ "type": "Feature", "properties": { "NAME": "Gugulethu Indoor Sports Centre" }, "geometry": { "type": "Point", "coordinates": [ 18.56676, -33.98077 ] } },
{ "type": "Feature", "properties": { "NAME": "Facreton Community Centre" }, "geometry": { "type": "Point", "coordinates": [ 18.51872, -33.90523 ] } },
{ "type": "Feature", "properties": { "NAME": "Eyethu Multi-Purpose Centre" }, "geometry": { "type": "Point", "coordinates": [ 18.6699, -34.03501 ] } },
{ "type": "Feature", "properties": { "NAME": "Eersteriver Multi-Purpose Centre" }, "geometry": { "type": "Point", "coordinates": [ 18.72481, -34.00794 ] } },
{ "type": "Feature", "properties": { "NAME": "Beacon Valley Centre" }, "geometry": { "type": "Point", "coordinates": [ 18.62718, -34.03971 ] } },
{ "type": "Feature", "properties": { "NAME": "Bardale Multi-Purpose Centre" }, "geometry": { "type": "Point", "coordinates": [ 18.68042, -33.99622 ] } },
{ "type": "Feature", "properties": { "NAME": "Rebecca van Amsterdam Hall" }, "geometry": { "type": "Point", "coordinates": [ 18.49811, -33.57642 ] } },
{ "type": "Feature", "properties": { "NAME": "Joe Slovo Sport & Recreation Centre" }, "geometry": { "type": "Point", "coordinates": [ 18.51006, -33.87215 ] } },
{ "type": "Feature", "properties": { "NAME": "Mitchells Plain Family Youth Centre" }, "geometry": { "type": "Point", "coordinates": [ 18.63777, -34.06141 ] } },
{ "type": "Feature", "properties": { "NAME": "Weltevreden Valley Hall" }, "geometry": { "type": "Point", "coordinates": [ 18.57946, -34.01826 ] } },
{ "type": "Feature", "properties": { "NAME": "Khayelitsha CBD" }, "geometry": { "type": "Point", "coordinates": [ 18.67434, -34.04778 ] } },
{ "type": "Feature", "properties": { "NAME": "O.R Tambo Indoor Sports Centre" }, "geometry": { "type": "Point", "coordinates": [ 18.66044, -34.01506 ] } },
{ "type": "Feature", "properties": { "NAME": "Du Noon" }, "geometry": { "type": "Point", "coordinates": [ 18.54321, -33.81359 ] } },
{ "type": "Feature", "properties": { "NAME": "Bridgetown Community Centre" }, "geometry": { "type": "Point", "coordinates": [ 18.52974, -33.95552 ] } },
{ "type": "Feature", "properties": { "NAME": "Hout Bay Sport and Recreation Centre" }, "geometry": { "type": "Point", "coordinates": [ 18.34193, -34.05388 ] } },
{ "type": "Feature", "properties": { "NAME": "NY 49 Stadium" }, "geometry": { "type": "Point", "coordinates": [ 18.5675, -33.98892 ] } },
{ "type": "Feature", "properties": { "NAME": "Fisantekraal Multi Purpose Centre" }, "geometry": { "type": "Point", "coordinates": [ 18.71773, -33.78253 ] } },
{ "type": "Feature", "properties": { "NAME": "Monwabisi Sport & Recreation Centre" }, "geometry": { "type": "Point", "coordinates": [ 18.52699, -33.94126 ] } },
{ "type": "Feature", "properties": { "NAME": "Ocean View Sportsand Recreation Centre" }, "geometry": { "type": "Point", "coordinates": [ 18.35384, -34.14868 ] } },
{ "type": "Feature", "properties": { "NAME": "Mandalay Hall" }, "geometry": { "type": "Point", "coordinates": [ 18.62929, -34.01579 ] } }
]
}
